<?xml version="1.0" encoding="UTF-8"?>
<kml xmlns="http://www.opengis.net/kml/2.2">
  <Document>
    <name>gmaps_nps_trails_lavo_bibe</name>
    <description>Google My Maps collection of hiked NPS trails from Lassen to Big Bend, excluding Carlsbad and White Sands</description>
    <Style id="icon-1899-0288D1-nodesc-normal">
      <IconStyle>
        <color>ffd18802</color>
        <scale>1</scale>
        <Icon>
          <href>https://www.gstatic.com/mapspro/images/stock/503-wht-blank_maps.png</href>
        </Icon>
        <hotSpot x="32" xunits="pixels" y="64" yunits="insetPixels"/>
      </IconStyle>
      <LabelStyle>
        <scale>0</scale>
      </LabelStyle>
      <BalloonStyle>
        <text><![CDATA[<h3>$[name]</h3>]]></text>
      </BalloonStyle>
    </Style>
    <Style id="icon-1899-0288D1-nodesc-highlight">
      <IconStyle>
        <color>ffd18802</color>
        <scale>1</scale>
        <Icon>
          <href>https://www.gstatic.com/mapspro/images/stock/503-wht-blank_maps.png</href>
        </Icon>
        <hotSpot x="32" xunits="pixels" y="64" yunits="insetPixels"/>
      </IconStyle>
      <LabelStyle>
        <scale>1</scale>
      </LabelStyle>
      <BalloonStyle>
        <text><![CDATA[<h3>$[name]</h3>]]></text>
      </BalloonStyle>
    </Style>
    <StyleMap id="icon-1899-0288D1-nodesc">
      <Pair>
        <key>normal</key>
        <styleUrl>#icon-1899-0288D1-nodesc-normal</styleUrl>
      </Pair>
      <Pair>
        <key>highlight</key>
        <styleUrl>#icon-1899-0288D1-nodesc-highlight</styleUrl>
      </Pair>
    </StyleMap>
    <Folder>
      <name>pinn</name>
      <Placemark>
        <name>Juniper Canyon Trail</name>
        <styleUrl>#icon-1899-0288D1-nodesc</styleUrl>
        <Point>
          <coordinates>
            -121.2047223,36.4871085,0
          </coordinates>
        </Point>
      </Placemark>
      <Placemark>
        <name>Balconies Cave Trail</name>
        <styleUrl>#icon-1899-0288D1-nodesc</styleUrl>
        <Point>
          <coordinates>
            -121.2011774,36.5002002,0
          </coordinates>
        </Point>
      </Placemark>
      <Placemark>
        <name>Balconies Cliffs Trail</name>
        <styleUrl>#icon-1899-0288D1-nodesc</styleUrl>
        <Point>
          <coordinates>
            -121.2020834,36.5006437,0
          </coordinates>
        </Point>
      </Placemark>
      <Placemark>
        <name>Prewett Point Trail</name>
        <styleUrl>#icon-1899-0288D1-nodesc</styleUrl>
        <Point>
          <coordinates>
            -121.2254809,36.4775673,0
          </coordinates>
        </Point>
      </Placemark>
      <Placemark>
        <name>Moses Spring Trail</name>
        <styleUrl>#icon-1899-0288D1-nodesc</styleUrl>
        <Point>
          <coordinates>
            -121.1865253,36.4747836,0
          </coordinates>
        </Point>
      </Placemark>
      <Placemark>
        <name>Rim Trail</name>
        <styleUrl>#icon-1899-0288D1-nodesc</styleUrl>
        <Point>
          <coordinates>
            -121.1875328,36.4748524,0
          </coordinates>
        </Point>
      </Placemark>
      <Placemark>
        <name>Condor Gulch Trail</name>
        <styleUrl>#icon-1899-0288D1-nodesc</styleUrl>
        <Point>
          <coordinates>
            -121.1810307,36.4816139,0
          </coordinates>
        </Point>
      </Placemark>
      <Placemark>
        <name>High Peaks Trail</name>
        <styleUrl>#icon-1899-0288D1-nodesc</styleUrl>
        <Point>
          <coordinates>
            -121.1862481,36.4895368,0
          </coordinates>
        </Point>
      </Placemark>
    </Folder>
    <Folder>
      <name>seki</name>
      <Placemark>
        <name>General Sherman Tree</name>
        <styleUrl>#icon-1899-0288D1-nodesc</styleUrl>
        <Point>
          <coordinates>
            -118.751442,36.5817069,0
          </coordinates>
        </Point>
      </Placemark>
      <Placemark>
        <name>The Congress Trail</name>
        <styleUrl>#icon-1899-0288D1-nodesc</styleUrl>
        <Point>
          <coordinates>
            -118.750251,36.5809946,0
          </coordinates>
        </Point>
      </Placemark>
      <Placemark>
        <name>Big Trees Trail</name>
        <styleUrl>#icon-1899-0288D1-nodesc</styleUrl>
        <Point>
          <coordinates>
            -118.7682073,36.5669878,0
          </coordinates>
        </Point>
      </Placemark>
      <Placemark>
        <name>Moro Rock Trail</name>
        <styleUrl>#icon-1899-0288D1-nodesc</styleUrl>
        <Point>
          <coordinates>
            -118.7656765,36.5467941,0
          </coordinates>
        </Point>
      </Placemark>
      <Placemark>
        <name>Crescent Meadow Trail</name>
        <styleUrl>#icon-1899-0288D1-nodesc</styleUrl>
        <Point>
          <coordinates>
            -118.7488318,36.5564694,0
          </coordinates>
        </Point>
      </Placemark>
      <Placemark>
        <name>Tokopah Trailhead</name>
        <styleUrl>#icon-1899-0288D1-nodesc</styleUrl>
        <Point>
          <coordinates>
            -118.7227277,36.6050929,0
          </coordinates>
        </Point>
      </Placemark>
      <Placemark>
        <name>Circle Meadow Loops</name>
        <styleUrl>#icon-1899-0288D1-nodesc</styleUrl>
        <Point>
          <coordinates>
            -118.7500029,36.569767,0
          </coordinates>
        </Point>
      </Placemark>
      <Placemark>
        <name>Soldiers Trailhead</name>
        <styleUrl>#icon-1899-0288D1-nodesc</styleUrl>
        <Point>
          <coordinates>
            -118.7652506,36.5470277,0
          </coordinates>
        </Point>
      </Placemark>
      <Placemark>
        <name>Trail Of The Sequoias</name>
        <styleUrl>#icon-1899-0288D1-nodesc</styleUrl>
        <Point>
          <coordinates>
            -118.7429917,36.5663194,0
          </coordinates>
        </Point>
      </Placemark>
      <Placemark>
        <name>Booker T. Washington Tree</name>
        <styleUrl>#icon-1899-0288D1-nodesc</styleUrl>
        <Point>
          <coordinates>
            -118.7707784,36.5575659,0
          </coordinates>
        </Point>
      </Placemark>
      <Placemark>
        <name>Long Meadow Loop</name>
        <styleUrl>#icon-1899-0288D1-nodesc</styleUrl>
        <Point>
          <coordinates>
            -118.7367113,36.5908093,0
          </coordinates>
        </Point>
      </Placemark>
      <Placemark>
        <name>Lakes trailhead</name>
        <styleUrl>#icon-1899-0288D1-nodesc</styleUrl>
        <Point>
          <coordinates>
            -118.733674,36.596711,0
          </coordinates>
        </Point>
      </Placemark>
      <Placemark>
        <name>Giant Forest Museum</name>
        <styleUrl>#icon-1899-0288D1-nodesc</styleUrl>
        <Point>
          <coordinates>
            -118.7727191,36.5647207,0
          </coordinates>
        </Point>
      </Placemark>
      <Placemark>
        <name>High Sierra Trailhead</name>
        <styleUrl>#icon-1899-0288D1-nodesc</styleUrl>
        <Point>
          <coordinates>
            -118.7489866,36.5548051,0
          </coordinates>
        </Point>
      </Placemark>
      <Placemark>
        <name>Wolverton Cut-Off</name>
        <styleUrl>#icon-1899-0288D1-nodesc</styleUrl>
        <Point>
          <coordinates>
            -118.7364408,36.5700536,0
          </coordinates>
        </Point>
      </Placemark>
      <Placemark>
        <name>Beetle Rock Trailhead</name>
        <styleUrl>#icon-1899-0288D1-nodesc</styleUrl>
        <Point>
          <coordinates>
            -118.7743175,36.5646957,0
          </coordinates>
        </Point>
      </Placemark>
      <Placemark>
        <name>Big Baldy Ridge Trailhead</name>
        <styleUrl>#icon-1899-0288D1-nodesc</styleUrl>
        <Point>
          <coordinates>
            -118.8787359,36.6973519,0
          </coordinates>
        </Point>
      </Placemark>
      <Placemark>
        <name>General Grant Tree</name>
        <styleUrl>#icon-1899-0288D1-nodesc</styleUrl>
        <Point>
          <coordinates>
            -118.9711957,36.7482167,0
          </coordinates>
        </Point>
      </Placemark>
      <Placemark>
        <name>Buena Vista Peak</name>
        <styleUrl>#icon-1899-0288D1-nodesc</styleUrl>
        <Point>
          <coordinates>
            -118.8966666,36.7113888,0
          </coordinates>
        </Point>
      </Placemark>
      <Placemark>
        <name>Boole Tree Loop Trail</name>
        <styleUrl>#icon-1899-0288D1-nodesc</styleUrl>
        <Point>
          <coordinates>
            -118.9607407,36.8221928,0
          </coordinates>
        </Point>
      </Placemark>
      <Placemark>
        <name>The Big Stump Grove</name>
        <styleUrl>#icon-1899-0288D1-nodesc</styleUrl>
        <Point>
          <coordinates>
            -118.9652293,36.7173293,0
          </coordinates>
        </Point>
      </Placemark>
      <Placemark>
        <name>Zumwalt Meadows</name>
        <styleUrl>#icon-1899-0288D1-nodesc</styleUrl>
        <Point>
          <coordinates>
            -118.5959325,36.7913281,0
          </coordinates>
        </Point>
      </Placemark>
      <Placemark>
        <name>Roaring River Falls</name>
        <styleUrl>#icon-1899-0288D1-nodesc</styleUrl>
        <Point>
          <coordinates>
            -118.6209327,36.7804955,0
          </coordinates>
        </Point>
      </Placemark>
      <Placemark>
        <name>Knapps Cabin</name>
        <styleUrl>#icon-1899-0288D1-nodesc</styleUrl>
        <Point>
          <coordinates>
            -118.6366468,36.7835008,0
          </coordinates>
        </Point>
      </Placemark>
      <Placemark>
        <name>Sheep Creek Cascade</name>
        <styleUrl>#icon-1899-0288D1-nodesc</styleUrl>
        <Point>
          <coordinates>
            -118.6843153,36.7770097,0
          </coordinates>
        </Point>
      </Placemark>
      <Placemark>
        <name>Cedar Grove Overlook</name>
        <styleUrl>#icon-1899-0288D1-nodesc</styleUrl>
        <Point>
          <coordinates>
            -118.6787816,36.8004806,0
          </coordinates>
        </Point>
      </Placemark>
      <Placemark>
        <name>Mist Falls Trailhead 8 mile hike rt</name>
        <styleUrl>#icon-1899-0288D1-nodesc</styleUrl>
        <Point>
          <coordinates>
            -118.5828403,36.7946371,0
          </coordinates>
        </Point>
      </Placemark>
      <Placemark>
        <name>Copper Creek Trailhead</name>
        <styleUrl>#icon-1899-0288D1-nodesc</styleUrl>
        <Point>
          <coordinates>
            -118.5835548,36.7964936,0
          </coordinates>
        </Point>
      </Placemark>
    </Folder>
    <Folder>
      <name>yose</name>
      <Placemark>
        <name>Grizzly Giant Loop Trail</name>
        <styleUrl>#icon-1899-0288D1-nodesc</styleUrl>
        <Point>
          <coordinates>
            -119.6049086,37.5058884,0
          </coordinates>
        </Point>
      </Placemark>
      <Placemark>
        <name>Big Trees Loop Trail</name>
        <styleUrl>#icon-1899-0288D1-nodesc</styleUrl>
        <Point>
          <coordinates>
            -119.6100182,37.5022657,0
          </coordinates>
        </Point>
      </Placemark>
      <Placemark>
        <name>Guardians Loop Trail</name>
        <styleUrl>#icon-1899-0288D1-nodesc</styleUrl>
        <Point>
          <coordinates>
            -119.5984702,37.5134502,0
          </coordinates>
        </Point>
      </Placemark>
      <Placemark>
        <name>Mariposa Grove Trail</name>
        <styleUrl>#icon-1899-0288D1-nodesc</styleUrl>
        <Point>
          <coordinates>
            -119.6030533,37.5108431,0
          </coordinates>
        </Point>
      </Placemark>
      <Placemark>
        <name>Wawona Point</name>
        <styleUrl>#icon-1899-0288D1-nodesc</styleUrl>
        <Point>
          <coordinates>
            -119.6008314,37.5185446,0
          </coordinates>
        </Point>
      </Placemark>
      <Placemark>
        <name>Bridalveil Falls Trailhead</name>
        <styleUrl>#icon-1899-0288D1-nodesc</styleUrl>
        <Point>
          <coordinates>
            -119.6509222,37.716814,0
          </coordinates>
        </Point>
      </Placemark>
      <Placemark>
        <name>Lower Yosemite Fall Trail</name>
        <styleUrl>#icon-1899-0288D1-nodesc</styleUrl>
        <Point>
          <coordinates>
            -119.5935639,37.7474042,0
          </coordinates>
        </Point>
      </Placemark>
      <Placemark>
        <name><![CDATA[Cook's Meadow Loop]]></name>
        <styleUrl>#icon-1899-0288D1-nodesc</styleUrl>
        <Point>
          <coordinates>
            -119.5927789,37.7461204,0
          </coordinates>
        </Point>
      </Placemark>
      <Placemark>
        <name>Mirror Lake Loop</name>
        <styleUrl>#icon-1899-0288D1-nodesc</styleUrl>
        <Point>
          <coordinates>
            -119.547126,37.7510483,0
          </coordinates>
        </Point>
      </Placemark>
      <Placemark>
        <name>Mist Trail</name>
        <styleUrl>#icon-1899-0288D1-nodesc</styleUrl>
        <Point>
          <coordinates>
            -119.5398801,37.7265763,0
          </coordinates>
        </Point>
      </Placemark>
      <Placemark>
        <name>John Muir Trail</name>
        <styleUrl>#icon-1899-0288D1-nodesc</styleUrl>
        <Point>
          <coordinates>
            -119.5489532,37.7260032,0
          </coordinates>
        </Point>
      </Placemark>
      <Placemark>
        <name>Yosemite Falls Trail</name>
        <styleUrl>#icon-1899-0288D1-nodesc</styleUrl>
        <Point>
          <coordinates>
            -119.5813409,37.7719593,0
          </coordinates>
        </Point>
      </Placemark>
      <Placemark>
        <name>Glacier Point Trailhead</name>
        <styleUrl>#icon-1899-0288D1-nodesc</styleUrl>
        <Point>
          <coordinates>
            -119.5742864,37.7276829,0
          </coordinates>
        </Point>
      </Placemark>
      <Placemark>
        <name>McGurk Meadow Trail</name>
        <styleUrl>#icon-1899-0288D1-nodesc</styleUrl>
        <Point>
          <coordinates>
            -119.6225043,37.6803288,0
          </coordinates>
        </Point>
      </Placemark>
      <Placemark>
        <name>Sentinel Dome Trail</name>
        <styleUrl>#icon-1899-0288D1-nodesc</styleUrl>
        <Point>
          <coordinates>
            -119.5834763,37.7205455,0
          </coordinates>
        </Point>
      </Placemark>
      <Placemark>
        <name>Panorama Trail</name>
        <styleUrl>#icon-1899-0288D1-nodesc</styleUrl>
        <Point>
          <coordinates>
            -119.5522226,37.7191461,0
          </coordinates>
        </Point>
      </Placemark>
      <Placemark>
        <name>Wapama And Rancheria Fall Trailhead</name>
        <styleUrl>#icon-1899-0288D1-nodesc</styleUrl>
        <Point>
          <coordinates>
            -119.7875811,37.9462683,0
          </coordinates>
        </Point>
      </Placemark>
      <Placemark>
        <name>May Lake Trailhead</name>
        <styleUrl>#icon-1899-0288D1-nodesc</styleUrl>
        <Point>
          <coordinates>
            -119.4910614,37.832588,0
          </coordinates>
        </Point>
      </Placemark>
      <Placemark>
        <name>North Dome Trail</name>
        <styleUrl>#icon-1899-0288D1-nodesc</styleUrl>
        <Point>
          <coordinates>
            -119.5713197,37.7678585,0
          </coordinates>
        </Point>
      </Placemark>
      <Placemark>
        <name>Pothole Dome</name>
        <styleUrl>#icon-1899-0288D1-nodesc</styleUrl>
        <Point>
          <coordinates>
            -119.3932138,37.8799245,0
          </coordinates>
        </Point>
      </Placemark>
      <Placemark>
        <name>Gaylor Lake Trailhead</name>
        <styleUrl>#icon-1899-0288D1-nodesc</styleUrl>
        <Point>
          <coordinates>
            -119.2583428,37.9101831,0
          </coordinates>
        </Point>
      </Placemark>
      <Placemark>
        <name>Lembert Dome Trail</name>
        <styleUrl>#icon-1899-0288D1-nodesc</styleUrl>
        <Point>
          <coordinates>
            -119.3433786,37.8832615,0
          </coordinates>
        </Point>
      </Placemark>
      <Placemark>
        <name>Dog Lake Trail</name>
        <styleUrl>#icon-1899-0288D1-nodesc</styleUrl>
        <Point>
          <coordinates>
            -119.3452279,37.8896887,0
          </coordinates>
        </Point>
      </Placemark>
      <Placemark>
        <name>Cathedral Lakes Trailhead</name>
        <styleUrl>#icon-1899-0288D1-nodesc</styleUrl>
        <Point>
          <coordinates>
            -119.3826485,37.8732051,0
          </coordinates>
        </Point>
      </Placemark>
      <Placemark>
        <name>Mono Pass Trailhead</name>
        <styleUrl>#icon-1899-0288D1-nodesc</styleUrl>
        <Point>
          <coordinates>
            -119.2624601,37.8910129,0
          </coordinates>
        </Point>
      </Placemark>
      <Placemark>
        <name>Dewey Point</name>
        <styleUrl>#icon-1899-0288D1-nodesc</styleUrl>
        <Point>
          <coordinates>
            -119.6502382,37.7045816,0
          </coordinates>
        </Point>
      </Placemark>
      <Placemark>
        <name>Taft Point</name>
        <styleUrl>#icon-1899-0288D1-nodesc</styleUrl>
        <Point>
          <coordinates>
            -119.6046084,37.7129827,0
          </coordinates>
        </Point>
      </Placemark>
    </Folder>
    <Folder>
      <name>redw</name>
      <Placemark>
        <name>Trillium Falls Trail</name>
        <styleUrl>#icon-1899-0288D1-nodesc</styleUrl>
        <Point>
          <coordinates>
            -124.0451908,41.3215949,0
          </coordinates>
        </Point>
      </Placemark>
      <Placemark>
        <name>Berry Glen Trail</name>
        <styleUrl>#icon-1899-0288D1-nodesc</styleUrl>
        <Point>
          <coordinates>
            -124.0340806,41.3096449,0
          </coordinates>
        </Point>
      </Placemark>
      <Placemark>
        <name>Lady Bird Johnson Grove Trail</name>
        <styleUrl>#icon-1899-0288D1-nodesc</styleUrl>
        <Point>
          <coordinates>
            -124.0184639,41.3035697,0
          </coordinates>
        </Point>
      </Placemark>
      <Placemark>
        <name>Tall Trees Trail</name>
        <styleUrl>#icon-1899-0288D1-nodesc</styleUrl>
        <Point>
          <coordinates>
            -124.0035261,41.2087378,0
          </coordinates>
        </Point>
      </Placemark>
      <Placemark>
        <name>Klamath River Overlook</name>
        <styleUrl>#icon-1899-0288D1-nodesc</styleUrl>
        <Point>
          <coordinates>
            -124.0866836,41.5544092,0
          </coordinates>
        </Point>
      </Placemark>
    </Folder>
    <Folder>
      <name>crla</name>
      <Placemark>
        <name>Castle Crest Wildflower Trail</name>
        <styleUrl>#icon-1899-0288D1-nodesc</styleUrl>
        <Point>
          <coordinates>
            -122.1334125,42.8959414,0
          </coordinates>
        </Point>
      </Placemark>
      <Placemark>
        <name>Lady of the Woods Trailhead</name>
        <styleUrl>#icon-1899-0288D1-nodesc</styleUrl>
        <Point>
          <coordinates>
            -122.1344653,42.8966311,0
          </coordinates>
        </Point>
      </Placemark>
      <Placemark>
        <name>Annie Creek Canyon</name>
        <styleUrl>#icon-1899-0288D1-nodesc</styleUrl>
        <Point>
          <coordinates>
            -122.159141,42.8652519,0
          </coordinates>
        </Point>
      </Placemark>
      <Placemark>
        <name>Godfrey Glen Nature Trail</name>
        <styleUrl>#icon-1899-0288D1-nodesc</styleUrl>
        <Point>
          <coordinates>
            -122.1477479,42.8647611,0
          </coordinates>
        </Point>
      </Placemark>
      <Placemark>
        <name>Discovery Point Trailhead</name>
        <styleUrl>#icon-1899-0288D1-nodesc</styleUrl>
        <Point>
          <coordinates>
            -122.1475278,42.9123082,0
          </coordinates>
        </Point>
      </Placemark>
      <Placemark>
        <name>Watchman Peak Trailhead, Crater Lake</name>
        <styleUrl>#icon-1899-0288D1-nodesc</styleUrl>
        <Point>
          <coordinates>
            -122.1691656,42.9457166,0
          </coordinates>
        </Point>
      </Placemark>
      <Placemark>
        <name>Cleetwood Cove Trail</name>
        <styleUrl>#icon-1899-0288D1-nodesc</styleUrl>
        <Point>
          <coordinates>
            -122.0832215,42.9796232,0
          </coordinates>
        </Point>
      </Placemark>
      <Placemark>
        <name>Fumarole Bay Trail</name>
        <styleUrl>#icon-1899-0288D1-nodesc</styleUrl>
        <Point>
          <coordinates>
            -122.1513464,42.937555,0
          </coordinates>
        </Point>
      </Placemark>
      <Placemark>
        <name>Mount Scott Trailhead</name>
        <styleUrl>#icon-1899-0288D1-nodesc</styleUrl>
        <Point>
          <coordinates>
            -122.0300214,42.9289768,0
          </coordinates>
        </Point>
      </Placemark>
      <Placemark>
        <name>Sun Notch Trailhead</name>
        <styleUrl>#icon-1899-0288D1-nodesc</styleUrl>
        <Point>
          <coordinates>
            -122.0957699,42.9001593,0
          </coordinates>
        </Point>
      </Placemark>
      <Placemark>
        <name>Garfield Peak Trailhead</name>
        <styleUrl>#icon-1899-0288D1-nodesc</styleUrl>
        <Point>
          <coordinates>
            -122.1403775,42.9096448,0
          </coordinates>
        </Point>
      </Placemark>
      <Placemark>
        <name>Wizard Island Trail</name>
        <styleUrl>#icon-1899-0288D1-nodesc</styleUrl>
        <Point>
          <coordinates>
            -122.1482313,42.9370411,0
          </coordinates>
        </Point>
      </Placemark>
    </Folder>
    <Folder>
      <name>lavo</name>
      <Placemark>
        <name>Bumpass Trailhead</name>
        <styleUrl>#icon-1899-0288D1-nodesc</styleUrl>
        <Point>
          <coordinates>
            -121.5140083,40.4661197,0
          </coordinates>
        </Point>
      </Placemark>
      <Placemark>
        <name>Ridge Lakes Trailhead</name>
        <styleUrl>#icon-1899-0288D1-nodesc</styleUrl>
        <Point>
          <coordinates>
            -121.535845,40.4490098,0
          </coordinates>
        </Point>
      </Placemark>
      <Placemark>
        <name>Lassen Peak Trailhead</name>
        <styleUrl>#icon-1899-0288D1-nodesc</styleUrl>
        <Point>
          <coordinates>
            -121.5056466,40.4748224,0
          </coordinates>
        </Point>
      </Placemark>
      <Placemark>
        <name>Kings Creek Falls</name>
        <styleUrl>#icon-1899-0288D1-nodesc</styleUrl>
        <Point>
          <coordinates>
            -121.4411684,40.459747,0
          </coordinates>
        </Point>
      </Placemark>
      <Placemark>
        <name><![CDATA[Terrace, Shadow & Cliff Lake]]></name>
        <styleUrl>#icon-1899-0288D1-nodesc</styleUrl>
        <Point>
          <coordinates>
            -121.4512487,40.4823278,0
          </coordinates>
        </Point>
      </Placemark>
      <Placemark>
        <name>Sulphur Works</name>
        <styleUrl>#icon-1899-0288D1-nodesc</styleUrl>
        <Point>
          <coordinates>
            -121.5368687,40.4486997,0
          </coordinates>
        </Point>
      </Placemark>
      <Placemark>
        <name>Manzanita Lake Trail</name>
        <styleUrl>#icon-1899-0288D1-nodesc</styleUrl>
        <Point>
          <coordinates>
            -121.5664283,40.5350978,0
          </coordinates>
        </Point>
      </Placemark>
      <Placemark>
        <name>Reflection Lake Trail</name>
        <styleUrl>#icon-1899-0288D1-nodesc</styleUrl>
        <Point>
          <coordinates>
            -121.5652813,40.537694,0
          </coordinates>
        </Point>
      </Placemark>
      <Placemark>
        <name>Devastated Area Loop Trail</name>
        <styleUrl>#icon-1899-0288D1-nodesc</styleUrl>
        <Point>
          <coordinates>
            -121.4650444,40.5158466,0
          </coordinates>
        </Point>
      </Placemark>
      <Placemark>
        <name>Chaos Crags Trail</name>
        <styleUrl>#icon-1899-0288D1-nodesc</styleUrl>
        <Point>
          <coordinates>
            -121.5449618,40.5356569,0
          </coordinates>
        </Point>
      </Placemark>
      <Placemark>
        <name>Cinder Cone trailhead</name>
        <styleUrl>#icon-1899-0288D1-nodesc</styleUrl>
        <Point>
          <coordinates>
            -121.3017884,40.564806,0
          </coordinates>
        </Point>
      </Placemark>
    </Folder>
    <Folder>
      <name>ever</name>
      <Placemark>
        <name>Anhinga Trail</name>
        <styleUrl>#icon-1899-0288D1-nodesc</styleUrl>
        <Point>
          <coordinates>
            -80.6071771,25.3826842,0
          </coordinates>
        </Point>
      </Placemark>
      <Placemark>
        <name>Gumbo Limbo Trail</name>
        <styleUrl>#icon-1899-0288D1-nodesc</styleUrl>
        <Point>
          <coordinates>
            -80.6181224,25.380324,0
          </coordinates>
        </Point>
      </Placemark>
      <Placemark>
        <name>Pinelands Trail</name>
        <styleUrl>#icon-1899-0288D1-nodesc</styleUrl>
        <Point>
          <coordinates>
            -80.6800805,25.424277,0
          </coordinates>
        </Point>
      </Placemark>
      <Placemark>
        <name>Pa-hay-okee Trail</name>
        <styleUrl>#icon-1899-0288D1-nodesc</styleUrl>
        <Point>
          <coordinates>
            -80.7838154,25.4410268,0
          </coordinates>
        </Point>
      </Placemark>
      <Placemark>
        <name>Mahogany Hammock Trailhead</name>
        <styleUrl>#icon-1899-0288D1-nodesc</styleUrl>
        <Point>
          <coordinates>
            -80.8319992,25.3236517,0
          </coordinates>
        </Point>
      </Placemark>
      <Placemark>
        <name>Otter Cave Hammock Trail</name>
        <styleUrl>#icon-1899-0288D1-nodesc</styleUrl>
        <Point>
          <coordinates>
            -80.7668346,25.7485379,0
          </coordinates>
        </Point>
      </Placemark>
      <Placemark>
        <name>Bobcat Boardwalk Trailhead</name>
        <styleUrl>#icon-1899-0288D1-nodesc</styleUrl>
        <Point>
          <coordinates>
            -80.7642887,25.7567644,0
          </coordinates>
        </Point>
      </Placemark>
    </Folder>
    <Folder>
      <name>bisc</name>
      <Placemark>
        <name>Convoy Point</name>
        <styleUrl>#icon-1899-0288D1-nodesc</styleUrl>
        <Point>
          <coordinates>
            -80.3339426,25.464555,0
          </coordinates>
        </Point>
      </Placemark>
    </Folder>
    <Folder>
      <name>bibe</name>
      <Placemark>
        <name>Window View Trail</name>
        <styleUrl>#icon-1899-0288D1-nodesc</styleUrl>
        <Point>
          <coordinates>
            -103.3024206,29.2706878,0
          </coordinates>
        </Point>
      </Placemark>
      <Placemark>
        <name>The Window</name>
        <styleUrl>#icon-1899-0288D1-nodesc</styleUrl>
        <Point>
          <coordinates>
            -103.3301769,29.2810332,0
          </coordinates>
        </Point>
      </Placemark>
      <Placemark>
        <name>Lost Mine Trail Head</name>
        <styleUrl>#icon-1899-0288D1-nodesc</styleUrl>
        <Point>
          <coordinates>
            -103.2863925,29.2744042,0
          </coordinates>
        </Point>
      </Placemark>
      <Placemark>
        <name>Chisos Basin Trailhead</name>
        <styleUrl>#icon-1899-0288D1-nodesc</styleUrl>
        <Point>
          <coordinates>
            -103.3015178,29.2705397,0
          </coordinates>
        </Point>
      </Placemark>
      <Placemark>
        <name>Boquillas Canyon Trailhead</name>
        <styleUrl>#icon-1899-0288D1-nodesc</styleUrl>
        <Point>
          <coordinates>
            -102.9193605,29.2005724,0
          </coordinates>
        </Point>
      </Placemark>
      <Placemark>
        <name>Sam Nail Ranch Trail</name>
        <styleUrl>#icon-1899-0288D1-nodesc</styleUrl>
        <Point>
          <coordinates>
            -103.3697032,29.2794758,0
          </coordinates>
        </Point>
      </Placemark>
      <Placemark>
        <name>Panther Path</name>
        <styleUrl>#icon-1899-0288D1-nodesc</styleUrl>
        <Point>
          <coordinates>
            -103.2062249,29.3280571,0
          </coordinates>
        </Point>
      </Placemark>
      <Placemark>
        <name>Tuff Canyon Trail</name>
        <styleUrl>#icon-1899-0288D1-nodesc</styleUrl>
        <Point>
          <coordinates>
            -103.488161,29.149956,0
          </coordinates>
        </Point>
      </Placemark>
      <Placemark>
        <name>Lower Burro Mesa Pouroff Trailhead</name>
        <styleUrl>#icon-1899-0288D1-nodesc</styleUrl>
        <Point>
          <coordinates>
            -103.4070757,29.2340737,0
          </coordinates>
        </Point>
      </Placemark>
      <Placemark>
        <name>Rio Grande Village Nature Trail</name>
        <styleUrl>#icon-1899-0288D1-nodesc</styleUrl>
        <Point>
          <coordinates>
            -102.9539105,29.1791057,0
          </coordinates>
        </Point>
      </Placemark>
      <Placemark>
        <name>Santa Elena Canyon Trail</name>
        <styleUrl>#icon-1899-0288D1-nodesc</styleUrl>
        <Point>
          <coordinates>
            -103.61049,29.1672847,0
          </coordinates>
        </Point>
      </Placemark>
      <Placemark>
        <name>Ernst Ridge Trail</name>
        <styleUrl>#icon-1899-0288D1-nodesc</styleUrl>
        <Point>
          <coordinates>
            -102.9728411,29.1865664,0
          </coordinates>
        </Point>
      </Placemark>
    </Folder>
    <Folder>
      <name>gumo</name>
      <Placemark>
        <name>Guadalupe Peak Trailhead</name>
        <styleUrl>#icon-1899-0288D1-nodesc</styleUrl>
        <Point>
          <coordinates>
            -104.8282227,31.8966611,0
          </coordinates>
        </Point>
      </Placemark>
      <Placemark>
        <name>Manzanita Spring Loop Trailhead 2.5 miles</name>
        <styleUrl>#icon-1899-0288D1-nodesc</styleUrl>
        <Point>
          <coordinates>
            -104.8018448,31.9061381,0
          </coordinates>
        </Point>
      </Placemark>
      <Placemark>
        <name>Smith Spring Trail</name>
        <styleUrl>#icon-1899-0288D1-nodesc</styleUrl>
        <Point>
          <coordinates>
            -104.8028407,31.9136904,0
          </coordinates>
        </Point>
      </Placemark>
      <Placemark>
        <name>McKittrick Canyon Trailhead</name>
        <styleUrl>#icon-1899-0288D1-nodesc</styleUrl>
        <Point>
          <coordinates>
            -104.7518992,31.9769564,0
          </coordinates>
        </Point>
      </Placemark>
      <Placemark>
        <name>Pratt Cabin Access Trail</name>
        <styleUrl>#icon-1899-0288D1-nodesc</styleUrl>
        <Point>
          <coordinates>
            -104.7801384,31.983601,0
          </coordinates>
        </Point>
      </Placemark>
      <Placemark>
        <name>The Notch</name>
        <styleUrl>#icon-1899-0288D1-nodesc</styleUrl>
        <Point>
          <coordinates>
            -104.7926566,31.9647964,0
          </coordinates>
        </Point>
      </Placemark>
      <Placemark>
        <name>Hunter Line Shack</name>
        <styleUrl>#icon-1899-0288D1-nodesc</styleUrl>
        <Point>
          <coordinates>
            -104.7887643,31.969489,0
          </coordinates>
        </Point>
      </Placemark>
    </Folder>
  </Document>
</kml>
